[{"model": "geo.country", "pk": 1, "fields": {"name": "Украина"}}, {"model": "geo.country", "pk": 2, "fields": {"name": "Казахстан"}}, {"model": "geo.city", "pk": 7, "fields": {"country": 2, "name": "Кокшетау", "lat": 53.284323, "lng": 69.392843}}, {"model": "geo.city", "pk": 8, "fields": {"country": 2, "name": "Актобе", "lat": 50.28778, "lng": 57.183733}}, {"model": "geo.city", "pk": 9, "fields": {"country": 2, "name": "Талдыкорган", "lat": 45.021029, "lng": 78.376122}}, {"model": "geo.city", "pk": 10, "fields": {"country": 2, "name": "Атырау", "lat": 47.110271, "lng": 51.92592}}, {"model": "geo.city", "pk": 11, "fields": {"country": 2, "name": "Усть-Каменогорск", "lat": 49.966691, "lng": 82.618748}}, {"model": "geo.city", "pk": 12, "fields": {"country": 2, "name": "Тараз", "lat": 42.890457, "lng": 71.396338}}, {"model": "geo.city", "pk": 13, "fields": {"country": 2, "name": "Уральск", "lat": 51.224319, "lng": 51.404817}}, {"model": "geo.city", "pk": 14, "fields": {"country": 2, "name": "Караганда", "lat": 49.874558, "lng": 73.105248}}, {"model": "geo.city", "pk": 15, "fields": {"country": 2, "name": "Костанай", "lat": 53.220681, "lng": 63.635514}}, {"model": "geo.city", "pk": 16, "fields": {"country": 2, "name": "Кызылорда", "lat": 44.850315, "lng": 65.497254}}, {"model": "geo.city", "pk": 17, "fields": {"country": 2, "name": "Актау", "lat": 43.644656, "lng": 51.230058}}, {"model": "geo.city", "pk": 18, "fields": {"country": 2, "name": "Павлодар", "lat": 52.313296, "lng": 76.969567}}, {"model": "geo.city", "pk": 19, "fields": {"country": 2, "name": "Петропавловск", "lat": 54.879987, "lng": 69.151574}}, {"model": "geo.city", "pk": 20, "fields": {"country": 2, "name": "Шымкент", "lat": 42.30896, "lng": 69.606229}}, {"model": "geo.city", "pk": 21, "fields": {"country": 2, "name": "Астана", "lat": 51.151817, "lng": 71.480124}}, {"model": "geo.city", "pk": 22, "fields": {"country": 2, "name": "Алматы", "lat": 43.28081, "lng": 76.912335}}, {"model": "geo.city", "pk": 23, "fields": {"country": 2, "name": "Байконур", "lat": 45.609793, "lng": 63.283518}}, {"model": "geo.city", "pk": 100, "fields": {"country": 1, "name": "Харьков", "lat": 50.006174, "lng": 36.228301}}, {"model": "geo.city", "pk": 101, "fields": {"country": 1, "name": "Винница", "lat": 49.233571, "lng": 28.473702}}, {"model": "geo.city", "pk": 102, "fields": {"country": 1, "name": "Днепропетровск", "lat": 48.464567, "lng": 35.045408}}, {"model": "geo.city", "pk": 103, "fields": {"country": 1, "name": "Донецк", "lat": 48.016058, "lng": 37.801898}}, {"model": "geo.city", "pk": 104, "fields": {"country": 1, "name": "Житомир", "lat": 50.254617, "lng": 28.657443}}, {"model": "geo.city", "pk": 105, "fields": {"country": 1, "name": "Запорожье", "lat": 47.839497, "lng": 35.139588}}, {"model": "geo.city", "pk": 106, "fields": {"country": 1, "name": "Ивано-Франковск", "lat": 48.922837, "lng": 24.709402}}, {"model": "geo.city", "pk": 107, "fields": {"country": 1, "name": "Киев", "lat": 50.451118, "lng": 30.522301}}, {"model": "geo.city", "pk": 108, "fields": {"country": 1, "name": "Кировоград", "lat": 48.510381, "lng": 32.266488}}, {"model": "geo.city", "pk": 109, "fields": {"country": 1, "name": "Луганск", "lat": 48.572072, "lng": 39.307627}}, {"model": "geo.city", "pk": 110, "fields": {"country": 1, "name": "Луцк", "lat": 50.756946, "lng": 25.344493}}, {"model": "geo.city", "pk": 111, "fields": {"country": 1, "name": "Львов", "lat": 49.842164, "lng": 24.0312}}, {"model": "geo.city", "pk": 112, "fields": {"country": 1, "name": "Николаев", "lat": 46.965028, "lng": 31.987642}}, {"model": "geo.city", "pk": 113, "fields": {"country": 1, "name": "Одесса", "lat": 46.469517, "lng": 30.739846}}, {"model": "geo.city", "pk": 114, "fields": {"country": 1, "name": "Полтава", "lat": 49.589794, "lng": 34.55076}}, {"model": "geo.city", "pk": 115, "fields": {"country": 1, "name": "Ровно", "lat": 50.61984, "lng": 26.250803}}, {"model": "geo.city", "pk": 116, "fields": {"country": 1, "name": "Симферополь", "lat": 44.952333, "lng": 34.097111}}, {"model": "geo.city", "pk": 117, "fields": {"country": 1, "name": "Сумы", "lat": 50.912036, "lng": 34.80289}}, {"model": "geo.city", "pk": 118, "fields": {"country": 1, "name": "Тернополь", "lat": 49.553585, "lng": 25.594521}}, {"model": "geo.city", "pk": 119, "fields": {"country": 1, "name": "Ужгород", "lat": 48.625888, "lng": 22.288415}}, {"model": "geo.city", "pk": 120, "fields": {"country": 1, "name": "Херсон", "lat": 46.640313, "lng": 32.613866}}, {"model": "geo.city", "pk": 121, "fields": {"country": 1, "name": "Хмельницкий", "lat": 49.419984, "lng": 26.97869}}, {"model": "geo.city", "pk": 122, "fields": {"country": 1, "name": "Черкассы", "lat": 49.444708, "lng": 32.05939}}, {"model": "geo.city", "pk": 123, "fields": {"country": 1, "name": "Чернигов", "lat": 51.491108, "lng": 31.2984}}, {"model": "geo.city", "pk": 124, "fields": {"country": 1, "name": "Черновцы", "lat": 48.292276, "lng": 25.934865}}]